PlayerId,Name,Age,Nationality,OverallRating,Potential,Club,Value,Wage,Lat,Long,Count
138698,A. Abdi,31,Switzerland,69,69,Sheffield Wednesday,900000,13000,64.63061463,-21.68392833,1
106231,A. Aduriz,37,Spain,82,82,Athletic Club de Bilbao,8000000,29000,40.0690114,-2.138824,1
148684,A. Al Habsi,36,Oman,72,72,Al Hilal,425000,12000,35.30998074,134.8603056,1
138297,A. Alvarez,33,El Salvador,65,65,Houston Dynamo,325000,2000,9.5341111,-13.6894158,1
112373,A. Balijon,35,France,66,66,Le Havre AC,150000,1000,64.00737646,-22.30024692,1
140422,A. Baptiste,32,England,68,68,Queens Park Rangers,525000,4000,24.4562638,120.9411562,1
137186,A. Barzagli,37,Italy,84,84,Juventus,4000000,95000,24.56076251,121.4919222,1
14907,A. Bizzarri,40,Argentina,76,76,Foggia,525000,2000,41.50281055,15.45289391,1
105846,A. Boruc,38,Poland,74,74,Bournemouth,375000,24000,50.7201514,-1.8799118,1
140442,A. Butler,34,England,65,65,Doncaster Rovers,160000,3000,24.55010998,120.7598452,1
51921,A. Chambers,37,England,63,63,Walsall,120000,1000,52.5847949,-1.9822687,1
34079,A. Cole,37,England,71,71,LA Galaxy,270000,4000,30.20687735,-92.107658,1
53363,A. Collin,33,England,62,62,Carlisle United,150000,2000,43.39197865,-79.9768112,1
135742,A. Delgado,32,Spain,74,74,Al Ahli,3000000,29000,26.27010595,50.6568228,1
145117,A. Dorca,35,Spain,71,71,AD Alcorcon,550000,5000,62.2625095,-7.120013567,1
126883,A. Durak,31,Turkey,67,67,Caykur Rizespor,525000,5000,61.80663065,-6.701075653,1
138091,A. Egholm,35,Denmark,61,61,Sunderjyske,60000,2000,64.1261745,29.519515,1
53412,A. Ferdinand,33,England,65,65,St. Mirren,220000,2000,52.978876,-1.07077814,1
146296,A. Fernandez,31,Spain,76,76,Villarreal CF,5000000,22000,-22.5427515,-44.0704923,1
135743,A. Geijo,36,Spain,69,69,Venezia FC,375000,2000,50.83275235,15.23068436,1
143076,A. Gomez,30,Argentina,84,84,Atalanta,30000000,53000,24.14292491,120.6426937,1
137686,A. Hadouir,35,Netherlands,66,66,Excelsior,280000,2000,23.60864025,58.49214355,1
17725,A. Hughes,38,Northern Ireland,65,65,Heart of Midlothian,70000,2000,55.9495655,-3.1914772,1
139533,A. Hutton,33,Scotland,70,70,Aston Villa,675000,10000,40.41753085,-3.633822707,1
20551,A. Isaksson,36,Sweden,70,70,Djurgardens IF,240000,2000,59.346134,18.0788924,1
23823,A. Johansson,36,Sweden,72,72,IFK Norrkoeping,425000,4000,0,0,1
148700,A. Karadas,36,Norway,61,61,SK Brann,90000,1000,62.2063857,-6.874180324,1
139348,A. Kay,35,England,60,60,Port Vale,50000,2000,25.03181965,121.3700729,1
122849,A. Konai,34,Ivory Coast,74,74,Sivasspor ,3000000,15000,25.06767649,121.6531291,1
137510,A. Kruiswijk,33,Netherlands,65,65,Vitesse,210000,4000,61.95078735,-6.890623065,1
51887,A. Le Tallec,33,France,66,66,US Orleans Loiret Football,400000,2000,0,0,1
135043,A. Lindegaard,34,Denmark,68,68,Burnley,375000,14000,25.07632859,121.3685628,1
118794,A. Lonergan,34,England,65,65,Middlesbrough,220000,9000,-14.67251815,49.6566379,1
148496,A. Malarz,38,Poland,72,72,Legia Warszawa,210000,4000,62.2452608,-6.966538285,1
110606,A. Mannus,36,Northern Ireland,65,65,Shamrock Rovers,70000,1000,62.00158035,-6.875301224,1
49000,A. McGregor,36,Scotland,75,75,Rangers FC,900000,22000,55.85317605,-4.309271914,1
140293,A. Mirante,34,Italy,80,80,Roma,6000000,51000,24.63712687,120.8682481,1
49939,A. Nef,36,Switzerland,64,64,FC Zrich,60000,2000,0,0,1
142775,A. Orion,37,Argentina,70,70,Colo-Colo,120000,2000,58.0206278,63.7111331,1
121980,A. Poggenborg,34,Germany,60,60,SC Fortuna Koln,80000,1000,17.0011448,54.1034669,1
142902,A. Pyatov,34,Ukraine,77,77,Shakhtar Donetsk,4000000,1000,62.9761064,22.0122155,1
148212,A. Rebrov,34,Russia,74,74,Spartak Moscow,2000000,1000,62.31965515,-6.953546936,1
19410,A. Revell,34,England,61,61,Stevenage,130000,3000,51.9016663,-0.2027155,1
110974,A. Riesgo,34,Spain,73,73,SD Eibar,2000000,13000,47.9850021,7.8186305,1
146521,A. Ripa,32,Spain,69,69,CD Numancia,575000,5000,60.2162054,25.0880988,1
9014,A. Robben,34,Netherlands,84,84,FC Bayern Mnchen,15000000,110000,0,0,1
137460,A. Rosina,34,Italy,73,73,US Salernitana 1919,2000000,5000,50.05515,19.97528999,1
147621,A. Samedov,33,Russia,76,76,Spartak Moscow,5000000,1000,16.8279513,96.25469295,1
142499,A. Sanz,33,Spain,73,73,CD Tenerife,2000000,8000,53.0555687,8.8843106,1
124337,A. Turan,34,Turkey,71,71,Atiker Konyaspor,725000,11000,-20.70199947,47.05921451,1
142329,A. Tziolis,33,Greece,70,70,Al Fayha,725000,11000,62.06342375,-7.320860177,1
121134,A. Walke,35,Germany,72,72,FC Red Bull Salzburg,725000,12000,26.3664361,120.4895124,1
2335,A. Wilbraham,38,England,63,63,Rochdale,130000,1000,53.6153659,-2.1557561,1
138306,Angulo,34,Spain,72,72,Gornik Zabrze,2000000,6000,64.31972421,-22.0638015,1
110787,B.  Fernandez,37,Spain,70,70,Real Valladolid CF,240000,7000,62.0794027,-6.859638521,1
138110,B. Alves,36,Portugal,71,71,Parma,325000,16000,61.566667,25.183333,1
139274,B. Cesar,35,Slovenia,73,73,Chievo Verona,950000,9000,55.4576473,11.81403207,1
138336,B. Holman,34,Australia,69,69,Brisbane Roar,525000,4000,-21.38072887,47.08253517,1
138722,B. Jones,31,England,67,67,Rotherham United,500000,10000,-22.40261862,46.12355528,1
140420,B. Murphy,35,Republic of Ireland,64,64,Cardiff City,110000,5000,24.4193637,120.8653938,1
51261,B. Myhill,35,Wales,70,70,West Bromwich Albion,425000,9000,52.5164207,-2.0240863,1
3665,B. Nivet,41,France,71,71,ESTAC Troyes,100000,5000,48.3086832,4.0991506,1
104737,B. Roche,36,Republic of Ireland,63,63,Morecambe,50000,1000,54.0721085,-2.8650938,1
145047,B. Saltor,37,Spain,74,74,Brighton & Hove Albion,650000,25000,24.36041562,120.5935295,1
121944,B. Schweinsteiger,33,Germany,80,80,Chicago Fire,6000000,11000,37.520691,127.1038301,1
148634,B. Vandenbussche,36,Belgium,64,64,KSV Cercle Brugge,60000,2000,42.17730826,142.7608004,1
138786,B. Williams,35,England,58,58,Bolton Wanderers,30000,1000,-22.14481924,48.01072555,1
124375,B. Yilmaz,32,Turkey,79,79,Trabzonspor,10000000,41000,9.621674578,-13.05610766,1
142720,C. Araujo,36,Argentina,71,71,Club Atletico Huracÿn,270000,7000,62.1045075,-7.604653568,1
146558,C. Arzo,32,Spain,70,70,Gimnastic de Tarragona,1000000,5000,37.3619245,126.7384943,1
140424,C. Beardsley,34,England,60,60,Burton Albion,110000,2000,24.3970515,120.7795481,1
111503,C. Ben Saada,34,Tunisia,63,63,ESTAC Troyes,190000,2000,52.5183807,16.69262075,1
105866,C. Bovo,35,Italy,70,70,Lecce,425000,2000,40.1522173,18.22606283,1
52306,C. Brunt,33,Northern Ireland,72,72,West Bromwich Albion,2000000,24000,52.5164207,-2.0240863,1
104442,C. Burke,34,Scotland,67,67,Kilmarnock,375000,3000,55.6100589,-4.4964652,1
139609,C. Conway,33,Scotland,66,66,Blackburn Rovers,400000,12000,65.00575514,-22.76899231,1
110019,C. Dorado,35,Spain,71,71,Rayo Vallecano,550000,8000,46.2356948,15.0913266,1
139313,C. Fuchs,32,Austria,75,75,Leicester City,4000000,50000,60.2424459,24.8820688,1
53110,C. Gordon,35,Scotland,74,74,Celtic,1000000,20000,53.4620359,-109.273682,1
104476,C. Grindheim,34,Norway,67,67,FK Haugesund,375000,2000,0,0,1
118868,C. Kallqvist,34,Sweden,63,63,BK Hacken,150000,1000,64.06786745,-21.66146481,1
111661,C. Kameni,34,Cameroon,75,75,Fenerbahce SK,3000000,39000,62.04809045,-6.876072731,1
137359,C. Lepoint,33,Belgium,68,68,KV Kortrijk,375000,6000,24.45348263,121.7786679,1
139836,C. Medjani,33,Algeria,72,72,Sivasspor,1000000,10000,26.24202525,50.57670275,1
149064,C. Molinaro,34,Italy,72,72,Frosinone,875000,11000,62.1120543,-6.769967238,1
142998,C. Muaoz,41,Argentina,68,68,CD Universidad de Concepcion,60000,1000,26.2244177,50.5475818,1
138719,C. O'Grady,32,England,61,61,Oldham Athletic,200000,3000,-21.26795322,47.57489905,1
25420,C. Pizarro,39,Peru,74,74,SV Werder Bremen,2000000,18000,53.0670401,8.8387821,1
10899,C. Porter,34,England,62,62,Crewe Alexandra,160000,4000,53.08740205,-2.435733323,1
139057,C. Rodriguez,36,Argentina,68,68,Club Atletico Colon,100000,4000,-20.66677345,47.06286988,1
20801,C. Ronaldo,33,Portugal,94,94,Juventus,77000000,405000,44.9779934,7.6151806,1
139229,C. Salcido,38,Mexico,69,69,Guadalajara,140000,11000,24.97188082,121.0574443,1
144021,C. Schwegler,34,Switzerland,66,66,FC Luzern,180000,4000,66.04993191,-23.51357128,1
136504,C. Sung-hwan,36,Korea Republic,64,64,Jeonbuk Hyundai Motors,60000,2000,24.87635434,121.838084,1
102064,C. Terzi,34,Italy,72,72,Spezia,950000,4000,45.0381379,7.6694758,1
143001,C. Tevez,34,Argentina,78,78,Boca Juniors,5000000,26000,-15.1949367,47.64103333,1
45473,C. Tiffert,36,Germany,70,70,FC Erzgebirge Aue,240000,3000,50.59792055,12.70870912,1
11800,C. Weale,36,England,57,57,Exeter City,10000,1000,-34.8384893,138.4907683,1
139443,C. Won-Hee,35,Korea Republic,66,66,Suwon Samsung Bluewings,150000,2000,62.11490365,-7.021180053,1
102593,C. Woodman,35,England,62,62,Exeter City,70000,2000,-34.8384893,138.4907683,1
5479,Casillas,37,Spain,82,82,FC Porto,1000000,10000,41.0672014,-8.516288858,1
110638,Cifuentes,39,Spain,73,73,Cÿdiz CF,270000,4000,62.02143005,-6.910125565,1
136069,D. Accioly,37,Brazil,67,67,Santa Clara,100000,2000,9.5069098,-13.71179205,1
146530,D. Alves,35,Brazil,82,82,Paris Saint-Germain,5000000,62000,52.35567225,4.86177915,1
137351,D. Baier,34,Germany,79,79,FC Augsburg,3000000,28000,61.9854463,-6.653136726,1
135576,D. Barcelos,33,Brazil,69,69,CD Nacional,650000,6000,25.13949141,121.41468,1
39386,D. Beasley,36,United States,70,70,Houston Dynamo,200000,3000,0,0,1
115533,D. Benaglio,34,Switzerland,77,77,AS Monaco,4000000,44000,49.958507,20.94362277,1
9833,D. Boer,37,Netherlands,69,69,PEC Zwolle,70000,3000,52.517052,6.1198816,1
45595,D. Bonera,37,Italy,75,75,Villarreal CF,900000,18000,0,0,1
134792,D. Bowditch,32,England,63,63,Northampton Town,290000,3000,24.98367053,121.417095,1
104702,D. Braaten,36,Norway,67,67,SK Brann,260000,2000,0,0,1
53352,D. Bulman,39,England,60,60,Crawley Town,50000,1000,51.11685365,-0.183879817,1
147006,D. Castro,35,Spain,75,75,Perth Glory,3000000,5000,65.88479202,-23.54485733,1
137406,D. Croce,35,Italy,70,70,US Cremonese,750000,2000,62.6266587,26.2916036,1
7647,D. Dainelli,39,Italy,73,73,Livorno,270000,2000,42.7902379,10.34022393,1
148635,D. De fauw,36,Belgium,69,69,SV Zulte-Waregem,120000,5000,35.28618554,133.4854146,1
53302,D. De Rossi,34,Italy,83,83,Roma,8000000,80000,41.8933203,12.4829321,1
27532,D. de Vries,37,Netherlands,66,66,Celtic,40000,75000,53.4620359,-109.273682,1
138782,D. Fletcher,34,Scotland,71,71,Stoke City,1000000,26000,23.8498224,57.3766213,1
138390,D. Fox,34,England,65,65,Plymouth Argyle,160000,3000,24.90337394,120.9909242,1
146059,D. Garcia,36,Spain,72,72,UD Las Palmas,425000,6000,35.022895,133.176084,1
137410,D. Gastaldello,35,Italy,71,71,Brescia,550000,2000,64.31337391,-21.58702139,1
139476,D. Gerken,33,England,68,68,Ipswich Town,450000,3000,62.08170095,-6.978689449,1
146637,D. Gimenez,34,Spain,72,72,Deportivo de La CoruÏa,1000000,6000,37.58376705,140.4529925,1
20800,D. Gomes,34,Portugal,76,76,Clube Sport Maritimo,4000000,12000,39.0841332,-28.00781807,1
101488,D. Haas,34,Germany,66,66,FC Erzgebirge Aue,260000,2000,50.59792055,12.70870912,1
143133,D. Herner,34,Argentina,66,66,America de Cali,200000,1000,24.06647935,120.7011411,1
138830,D. Lewington,34,England,64,64,Milton Keynes Dons,130000,3000,26.2358595,50.5879847,1
139257,D. Lopar,33,Switzerland,64,64,FC St. Gallen,230000,3000,25.02528174,121.1127985,1
146748,D. Lopez,36,Spain,80,80,RCD Espanyol,2000000,17000,65.63663297,-23.87599552,1
137774,D. Maietta,35,Italy,72,72,Empoli,725000,7000,61.9874722,-6.974831795,1
140498,D. Marshall,33,Scotland,71,71,Hull City,1000000,13000,35.49001432,134.2040339,1
116314,D. Martin,32,England,66,66,Millwall,375000,3000,33.89313912,130.9114912,1
139296,D. Nugent,33,England,71,71,Derby County,2000000,29000,62.14102125,-7.042742689,1
116917,D. Perquis,32,France,69,69,Valenciennes FC,600000,3000,64.09790311,-21.87211613,1
138427,D. Pipe,34,Wales,56,56,Newport County,30000,1000,24.76265927,121.0997124,1
24248,D. Pizarro,38,Chile,73,73,Universidad de Chile,1000000,8000,-33.443867,-70.6506654,1
138153,D. Potter,33,Republic of Ireland,64,64,Rotherham United,180000,7000,60.2293848,24.8953875,1
145996,D. Seoane,35,Spain,74,74,CD Lugo,1000000,6000,31.9564131,34.9326044,1
53502,D. Sjoelund,35,Finland,66,66,IFK Norrkoeping,270000,2000,0,0,1
139997,D. Srna,36,Croatia,80,80,Cagliari,2000000,27000,64.9622563,-23.24547858,1
657,D. Vaughan,35,Wales,66,66,Notts County,150000,4000,52.9325093,-1.189730846,1
138026,D. Verhulst,30,Belgium,69,69,Sporting Lokeren,675000,5000,40.93285675,-79.43890251,1
113422,D. Villa,36,Spain,82,82,New York City FC,8000000,12000,49.90968135,20.89186823,1
13883,D. Whitaker,37,England,61,61,Macclesfield Town,80000,1000,53.2608042,-2.124840417,1
144024,D. Zibung,34,Switzerland,63,63,FC Luzern,150000,2000,26.2206343,50.5242174,1
139927,D.Wei,36,China PR,64,64,Guizhou Hengfeng FC,60000,2000,62.18567075,-7.180708544,1
138456,Diego Tardelli,33,Brazil,76,76,Shandong Luneng TaiShan FC,5000000,20000,26.2265735,50.5822922,1
80,E Belozoglu ,37,Turkey,79,79,Medipol Basaksehir FK,4000000,23000,0,0,1
53050,E. Adebayor,34,Togo,79,79,Medipol Basaksehir FK,7000000,34000,0,0,1
144200,E. Albayrak,27,Turkey,71,72,Jœbilo Iwata,2000000,4000,26.2163753,50.5298469,1
142962,E. Bologna,36,Argentina,70,70,River Plate,240000,6000,24.12717995,120.6699079,1
49488,E. Didot,34,France,74,74,En Avant de Guingamp,2000000,19000,0,0,1
133249,E. Hallfrensson,34,Iceland,72,72,Frosinone,2000000,12000,61.77481125,-6.693142514,1
140618,E. Jaager,33,Estonia,66,66,Valerenga Fotball,260000,2000,35.0277104,134.1370752,1
52326,E. Jakupovic,33,Switzerland,72,72,Leicester City,2000000,30000,52.6232734,-1.1350487,1
144306,E. Korkmaz,35,Turkey,70,70,BB Erzurumspor,425000,6000,24.2204025,120.5709749,1
148705,E. Mjelde,34,Norway,63,63,Sandefjord Fotball,180000,1000,34.62981101,133.6979575,1
46736,E. Moretti,37,Italy,75,75,Torino,900000,24000,45.0677551,7.6824892,1
12940,E. Pogatetz,35,Austria,68,68,LASK Linz,210000,3000,48.2918582,14.27712322,1
148696,E. Ruud,34,Norway,69,69,Odds BK,300000,3000,34.88127037,134.0363407,1
52126,F. Balmont,38,France,71,71,Dijon FCO,750000,7000,0,0,1
143587,F. Belluschi,34,Argentina,77,77,San Lorenzo de Almagro,5000000,22000,62.0921667,-6.953468284,1
139727,F. Boeckx,31,Belgium,71,71,RSC Anderlecht,1000000,10000,35.1636627,136.2735906,1
48745,F. Coloccini,36,Argentina,72,72,San Lorenzo de Almagro,425000,10000,14.4475273,-90.47839976,1
142818,F. Cubero,39,Argentina,71,71,Velez Sarsfield,160000,6000,34.72668191,134.232362,1
137708,F. Dick,33,Germany,66,66,FC Kaiserslautern,250000,2000,60.6530502,23.1406187,1
142794,F. Erpen,35,Argentina,71,71,San Martin de San Juan,550000,7000,-29.72034905,-53.76490108,1
49511,F. Kippe,40,Norway,65,65,Lillestrom SK,0,1000,50.266667,-105.883333,1
139668,F. Marchetti,35,Italy,77,77,Genoa,2000000,9000,64.84015717,-22.61145647,1
143751,F. Oztorun,31,Turkey,67,67,Atiker Konyaspor,500000,6000,65.99091196,-23.03292887,1
135507,F. Roza,33,Brazil,86,86,Manchester City,18000000,185000,25.07849232,121.4530334,1
49369,F. Torres,34,Spain,80,80,Sagan Tosu,8000000,10000,0,0,1
112362,F. Zoko,34,Ivory Coast,64,64,Yeovil Town,240000,3000,49.89122975,20.90789985,1
768,Felipe,33,Brazil,75,75,SPAL,2000000,13000,39.5753601,-9.001553478,1
6826,G. Barry,37,England,72,72,West Bromwich Albion,425000,16000,52.5164207,-2.0240863,1
134777,G. Bourillon,34,France,67,67,La Berrichonne de Chateauroux,230000,2000,61.79760945,-6.735379186,1
1179,G. Buffon,40,Italy,88,88,Paris Saint-Germain,4000000,77000,48.8715545,2.3031549,1
138956,G. Chiellini,33,Italy,89,89,Juventus,27000000,215000,64.68933995,-21.0842467,1
143699,G. Gonuai,33,Turkey,76,76,Besiktas JK,3000000,40000,-15.5718747,47.6157492,1
143018,G. Herrera,34,Argentina,67,67,Rosario Central,400000,6000,24.17535249,120.6990618,1
114764,G. Iraizoz,37,Spain,75,75,Girona FC,450000,13000,25.0206926,121.5261993,1
144037,G. Kusunga,30,Angola,65,65,Dundee FC,400000,2000,24.20912294,120.7022093,1
139866,G. Loovens,34,Netherlands,67,67,Sunderland,230000,5000,37.4874159,127.1018399,1
143022,G. Lorenzetti,33,Chile,69,69,Universidad de Chile,625000,6000,-15.23909429,47.85530622,1
138798,G. Lux,36,Argentina,71,71,River Plate,325000,7000,26.24107515,50.58801985,1
109852,G. McAuley,38,Northern Ireland,72,72,Rangers FC,425000,23000,46.2791783,15.0754267,1
19541,G. Morris,34,England,63,63,Crawley Town,150000,2000,51.11685365,-0.183879817,1
140233,G. Ochoa,32,Mexico,77,77,Standard de Liege,5000000,13000,62.1013251,-7.169703811,1
53593,G. O'Neil,35,England,67,67,Bolton Wanderers,180000,3000,53.5794299,-2.515916283,1
137506,G. Pandev,34,FYR Macedonia,75,75,Genoa,4000000,18000,23.5903896,120.5197739,1
137361,G. Pazzini,33,Italy,73,73,Hellas Verona,3000000,5000,67.3303348,23.7814738,1
106795,G. Pegolo,37,Italy,71,71,Sassuolo,160000,14000,44.5409769,10.7829023,1
164,G. Pinzi,37,Italy,70,70,Padova,240000,2000,45.391408,11.80584868,1
142780,G. Rodriguez,34,Argentina,75,75,San Lorenzo de Almagro,2000000,18000,35.06533286,134.0064873,1
123603,H. Campagnaro,38,Argentina,70,70,Pescara,240000,2000,25.00300558,121.6070613,1
135451,H. Gomes,37,Brazil,77,77,Watford,600000,25000,25.08560992,121.4759226,1
148720,H. Hauger,32,Norway,66,66,Stromsgodset IF,375000,2000,34.15504911,132.4915576,1
125871,H. Kaldirim,28,Turkey,73,73,Fenerbahce SK,3000000,43000,26.2619131,50.5968368,1
51694,H. Opdal,36,Norway,65,65,IK Start,70000,1000,0,0,1
140181,H. Sogahata,38,Japan,68,68,Kashima Antlers,60000,3000,64.79754136,-23.48710443,1
148119,I. Akinfeev,32,Russia,80,80,PFC CSKA Moscow,9000000,1000,62.2837437,-6.983897999,1
146969,I. Astiz,34,Spain,69,69,Legia Warszawa,325000,5000,22.4620072,113.9969877,1
52842,I. Camacho,37,Spain,67,67,VfL Wolfsburg,260000,6000,52.42532775,10.80016781,1
146952,I. Cuellar,34,Spain,76,76,CD Leganes,3000000,21000,62.24197695,-7.016432009,1
142592,I. Damonte,36,Argentina,72,72,Club Atletico Huracÿn,975000,9000,53.04178,8.917544,1
147782,I. Denisov,34,Russia,80,80,Lokomotiv Moscow,5000000,1000,60.2356754,25.0608235,1
118646,I. Henderson,33,England,67,67,Rochdale,475000,3000,26.2620295,50.61527,1
146701,I. Ramis,33,Spain,77,77,SD Eibar,4000000,22000,62.22423365,-6.991698218,1
146011,I. Uche,34,Nigeria,70,70,Gimnastic de Tarragona,925000,6000,60.2526036,24.0684575,1
41,Iniesta,34,Spain,86,86,Vissel Kobe,21000000,21000,0,0,1
146760,J. Belen,33,Spain,80,80,Atletico Madrid,6000000,53000,35.7082414,139.7974419,1
53655,J. Bothroyd,36,England,65,65,Hokkaido Consadole Sapporo,190000,1000,0,0,1
142762,J. Bottinelli,33,Argentina,72,72,Union de Santa Fe,1000000,10000,61.3805092,5.523824212,1
134779,J. Briand,32,France,76,76,FC Girondins de Bordeaux,6000000,41000,24.92487657,121.3885893,1
140423,J. Buxton,33,England,68,68,Burton Albion,375000,5000,24.47795776,120.7844013,1
146058,J. Cabrera,35,Spain,70,70,UD Las Palmas,775000,5000,62.2889549,-7.167396842,1
137449,J. Callsen-Bracker,33,Germany,71,71,FC Augsburg,950000,14000,59.35120788,18.09691767,1
138180,J. Campbell-Ryce,35,Jamaica,62,62,Stevenage,130000,2000,60.2310266,24.8767216,1
50955,J. Cavalli,36,France,71,71,AC Ajaccio,800000,4000,41.9263991,8.7376029,1
50542,J. Defoe,35,England,77,77,Bournemouth,4000000,49000,50.7201514,-1.8799118,1
146460,J. Fuego,34,Spain,77,77,Villarreal CF,3000000,28000,62.19043335,-6.958895494,1
142942,J. Gandolfi,37,Argentina,73,73,Club Atletico Talleres,550000,9000,62.20641175,-6.978342815,1
146462,J. Garcia,34,Spain,68,68,CF Rayo Majadahonda,270000,3000,65.53041032,-23.68846647,1
147007,J. Gavilaen,33,Spain,63,63,AD Alcorcon,220000,2000,60.23986,25.0981106,1
105308,J. Gillet,39,Belgium,70,70,Standard de Liege,120000,4000,50.61095765,5.54393415,1
139597,J. Guerra,36,Spain,70,70,Rayo Vallecano,625000,9000,62.1420044,-7.079828431,1
142822,J. Gutierrez,34,Argentina,73,73,Defensa y Justicia,2000000,12000,60.9826014,25.6613764,1
132740,J. Hansen,33,Denmark,75,75,FC Midtjylland,3000000,16000,25.00817539,121.5138536,1
19521,J. Ibehre,35,England,61,61,Cambridge United,120000,2000,52.2120297,0.154183055,1
48722,J. Inamoto,38,Japan,58,58,Hokkaido Consadole Sapporo,20000,1000,0,0,1
136363,J. Jo-gook,34,Korea Republic,69,69,Gangwon FC,550000,4000,61.76644315,-6.826961985,1
49589,J. Jonsson,34,Sweden,64,64,IF Elfsborg,140000,1000,0,0,1
146636,J. Juan,39,Spain,68,68,Elche CF,60000,1000,16.82856335,96.2556927,1
145014,J. Lopez,31,Spain,67,67,Perth Glory,525000,2000,62.23166175,-7.074234271,1
139862,J. Marveaux,35,France,70,70,GFC Ajaccio,425000,3000,37.4837678,127.0841812,1
142754,J. Mascherano,34,Argentina,80,80,Hebei China Fortune FC,5000000,20000,-29.70417795,-53.8601038,1
112316,J. Mathieu,34,France,81,81,Sporting CP,6000000,18000,62.0356181,-6.807547224,1
11430,J. McCombe,35,England,53,53,Lincoln City,10000,2000,44.9617922,-124.0159522,1
138412,J. Milner,32,England,81,81,Liverpool,14000000,120000,24.83208374,121.0683296,1
113524,J. Modesto,38,Spain,70,70,Elche CF,625000,4000,49.9203819,20.87196204,1
139860,J. Morel,34,Madagascar,76,76,Olympique Lyonnais,2000000,48000,2.9471219,101.3560941,1
52679,J. Murphy,36,Republic of Ireland,62,62,Bury,40000,1000,49.3132772,2.3439338,1
146536,J. Navas,32,Spain,80,80,Sevilla FC,12000000,22000,37.3517845,126.7429429,1
45842,J. Olsson,35,Sweden,69,69,Djurgardens IF,250000,2000,59.346134,18.0788924,1
3484,J. O'Shea,37,Republic of Ireland,69,69,Reading,140000,10000,51.4564242,-0.9700664,1
146963,J. Pinola,35,Argentina,77,77,River Plate,2000000,16000,34.92060348,133.9556546,1
112244,J. Plasil,36,Czech Republic,71,71,FC Girondins de Bordeaux,750000,18000,62.04204585,-6.769707554,1
49756,J. Poulsen,34,Denmark,73,73,FC Midtjylland,2000000,19000,56.1456163,8.944612612,1
142979,J. Quiroga,36,Argentina,63,63,Belgrano de Cordoba,40000,2000,24.1451171,120.6623596,1
142454,J. Rabasco,31,Spain,71,71,CF Rayo Majadahonda,2000000,5000,53.0657713,8.8689412,1
45186,J. Rodriguez,36,Spain,81,81,Real Betis,6000000,24000,37.30836835,-5.948074387,1
139368,J. Shackell,34,England,70,70,Lincoln City,550000,10000,24.95223098,121.2964723,1
110376,J. Soriano,32,Spain,77,77,Beijing Sinobo Guoan FC,7000000,23000,61.96360615,-6.799215387,1
143121,J. Sosa,33,Argentina,76,76,Trabzonspor,5000000,30000,26.2137877,50.6704877,1
49212,J. Speroni,39,Argentina,68,68,Crystal Palace,60000,8000,51.4193664,-0.0711328,1
139317,J. Stead,35,England,62,62,Notts County,140000,3000,60.244562,24.8994499,1
142270,J. Thomsen,36,Denmark,67,67,Randers FC,90000,3000,60.8539034,5.3387707,1
105318,J. Valdes,37,Chile,73,73,Colo-Colo,1000000,6000,-33.52019352,-71.00378824,1
53630,J. Van Damme,34,Belgium,73,73,Royal Antwerp FC,1000000,10000,0,0,1
138436,J. Walters,34,Republic of Ireland,71,71,Ipswich Town,1000000,33000,26.2229964,50.5850849,1
138151,J. Welsh,34,England,65,65,Grimsby Town,160000,3000,36.8052172,138.3506381,1
32740,J. Wiland,37,Sweden,72,72,Hammarby IF,210000,3000,0,0,1
20699,K Bakricioglu,37,Sweden,65,65,Hammarby IF,170000,1000,0,0,1
36111,K. Beckerman,36,United States,71,71,Real Salt Lake,325000,4000,40.4830102,-111.9778441,1
47020,K. Begois,36,Belgium,67,67,FC Groningen,100000,2000,53.2190652,6.5680077,1
49045,K. Boyd,34,Scotland,72,72,Kilmarnock,2000000,7000,55.6100589,-4.4964652,1
134828,K. Broadfoot,33,Scotland,67,67,Kilmarnock,300000,3000,61.89581125,-6.900921993,1
2702,K. Ellison,39,England,57,57,Morecambe,30000,1000,54.0721085,-2.8650938,1
120533,K. Ferreira,35,Portugal,85,85,Besiktas JK,9000000,57000,17.42928004,54.366498,1
100803,K. Henry,35,England,67,67,Bradford City,180000,3000,53.80433045,-1.759382787,1
148803,K. Huntelaar,34,Netherlands,77,77,Ajax,5000000,20000,51.69822057,19.47889486,1
51353,K. Miller,38,Scotland,69,69,Dundee FC,375000,3000,56.47465975,-2.97357375,1
135891,K. Overmeire,32,Belgium,70,70,Sporting Lokeren,1000000,8000,26.2872935,50.666728,1
53748,K. Pilkington,44,England,48,48,Cambridge United,0,1000,52.2120297,0.154183055,1
138729,K. Risgard,35,Denmark,65,65,Aalborg BK,230000,3000,23.7555491,57.5768591,1
102881,K. Stamatopoulos,38,Canada,57,57,AIK,10000,1000,33.64988035,-81.68528805,1
138247,K. Stuhr-Ellegaard,35,Denmark,70,70,IF Elfsborg,425000,2000,36.11523351,139.2431743,1
49659,K. Ziani,35,Algeria,69,69,US Orleans Loiret Football,450000,3000,0,0,1
136601,Kim Yong-dae,38,Korea Republic,66,66,Ulsan Hyundai FC,40000,1000,24.75793225,121.7908943,1
136553,L.  Dong-gook,39,Korea Republic,68,68,Jeonbuk Hyundai Motors,260000,4000,63.96964348,-22.57239198,1
102084,L. Belingheri,35,Italy,67,67,Padova,325000,1000,45.391408,11.80584868,1
49472,L. Butelle,35,France,75,75,Angers SCO,2000000,11000,47.4597159,-0.56893293,1
53736,L. Camp,33,Northern Ireland,67,67,Birmingham City,375000,7000,33.5206824,-86.8024326,1
138279,L. Dyer,35,England,65,65,Bolton Wanderers,240000,2000,48.77622965,16.7019335,1
111590,L. Feeney,31,England,67,67,Blackpool,675000,4000,62.06883905,-6.935900008,1
145758,L. Freire,28,Brazil,66,66,Shimizu S-Pulse,525000,2000,-6.009877933,145.3710957,1
53739,L. Grant,35,England,74,74,Manchester United,1000000,39000,13.8162188,100.5601063,1
144511,L. Greco,31,Italy,68,68,US Cremonese,775000,2000,62.2429838,-7.176764021,1
53741,L. Holmes,31,England,66,66,Exeter City,575000,4000,-34.8384893,138.4907683,1
137242,L. Jimenez,34,Chile,72,72,CD Palestino,1000000,4000,24.69767304,121.7819677,1
121988,L. Kruse,34,Germany,66,66,Eintracht Braunschweig,260000,2000,17.0887778,54.0693181,1
138086,L. Kryger,35,Denmark,59,59,AC Horsens,70000,1000,53.1240487,23.15785944,1
142707,L. Lopez,35,Argentina,79,79,Racing Club,6000000,22000,62.1230271,-7.39910151,1
140483,L. Mazzoni,34,Italy,70,70,Livorno,725000,2000,65.14690486,-21.9146459,1
111328,L. McCormick,34,England,64,64,Swindon Town,180000,3000,45.9178093,13.65170038,1
139213,L. Michel,38,Mexico,66,66,Club Tijuana,40000,3000,24.91471492,121.1620729,1
118359,L. Miller,35,Scotland,65,65,Livingston FC,250000,2000,26.2613977,50.6110114,1
139068,L. Nani,31,Portugal,81,81,Sporting CP,16000000,19000,24.86109584,121.2044312,1
143598,L. Pocrnjic,36,Argentina,73,73,Club Atletico Aldosivi,550000,5000,62.0966533,-6.89446423,1
53756,L. Price,33,Wales,62,62,Rotherham United,150000,4000,53.4286674,-1.370863961,1
138918,L. Rigoni,33,Italy,75,75,Parma,4000000,37000,24.1384596,56.8691272,1
18771,L. Steele,33,England,68,68,Nottingham Forest,450000,14000,29.766594,-95.6000018,1
135646,L. Walthert,34,Switzerland,62,62,Neuchatel Xamax,120000,1000,64.07330312,-22.66526323,1
105533,L. Zacuska,36,Poland,67,67,Pogon Szczecin,100000,1000,53.4328063,14.5114468,1
16,Luis Garcia,37,Spain,71,71,KAS Eupen,750000,6000,50.6263653,6.0453424,1
49575,M. Andersson,37,Sweden,59,59,Trelleborgs FF,20000,1000,55.36980635,13.14545369,1
142959,M. Barbosa,33,Argentina,76,76,Villarreal CF,4000000,22000,24.13916849,120.6999313,1
139482,M. Bean,34,Jamaica,60,60,Wycombe Wanderers,100000,1000,25.04938007,121.2225712,1
53818,M. Bloomfield,34,England,63,63,Wycombe Wanderers,180000,2000,51.603859,-0.806899842,1
51123,M. Bodmer,35,France,70,70,Amiens SC,750000,8000,49.910507,2.322471841,1
45605,M. Brighi,37,Italy,69,69,Empoli,325000,5000,43.7194884,10.9458556,1
137114,M. Ciani,34,France,69,69,LA Galaxy,325000,4000,24.67629332,121.766189,1
120312,M. Dawson,34,England,71,71,Nottingham Forest,725000,27000,-13.8041178,50.0836314,1
143809,M. Demir,26,Turkey,72,74,Sivasspor,4000000,12000,24.25560184,120.8304201,1
51101,M. Domizzi,38,Italy,71,71,Venezia FC,325000,3000,45.4377528,12.3326031,1
138334,M. El Hamdaoui,33,Morocco,67,67,Excelsior,475000,3000,64.40502209,-21.74226633,1
146953,M. Fernandez,34,Spain,72,72,Gimnastic de Tarragona,2000000,8000,62.2645019,-7.031912915,1
146974,M. Flaao,33,Spain,67,67,CA Osasuna,300000,4000,35.2277819,138.5179141,1
10884,M. Flynn,37,Wales,59,59,Newport County,50000,1000,41.5107263,-71.2971352,1
143107,M. Gelabert,36,Argentina,66,66,San Mart­n de San Juan,200000,3000,-15.2554358,48.5393347,1
11381,M. Gilks,36,Scotland,67,67,Scunthorpe United,100000,2000,0,0,1
137373,M. Gobbi,37,Italy,71,71,Parma,270000,16000,53.05659879,18.09066171,1
142705,M. Gonzalez,37,Argentina,72,72,Club Atletico Colon,1000000,8000,62.10355565,-7.353176825,1
104900,M. Gurski,39,Germany,60,60,Spagg Unterhaching,10000,1000,0,0,1
138384,M. Janko,35,Austria,69,69,FC Lugano,475000,4000,24.88848955,121.0462447,1
140451,M. Kightly,32,England,68,68,Southend United,700000,5000,62.045684,-7.208034949,1
138413,M. Kilgallon,34,England,68,68,Hamilton Academical FC,270000,3000,-20.53533881,47.24513736,1
107084,M. Langer,33,Austria,65,65,FC Schalke 04,270000,5000,51.55806345,7.063458653,1
52498,M. Lehmann,35,Germany,72,72,1. FC Koln,725000,10000,50.907465,6.9049067,1
135190,M. Liendl,32,Austria,70,70,Wolfsberger AC,1000000,8000,64.03583501,-22.6988168,1
52340,M. Maric,34,Switzerland,66,66,FC Lugano,200000,3000,46.0050102,8.9520281,1
142333,M. McNulty,37,Republic of Ireland,63,63,Cork City,20000,1000,65.52679551,-22.23274266,1
141265,M. Mikic,38,Croatia,66,66,Shonan Bellmare,220000,1000,34.84658597,137.3345811,1
110677,M. Moya,34,Spain,80,80,Real Sociedad,6000000,26000,62.05004905,-6.952163363,1
140180,M. Ogasawara,39,Japan,65,65,Kashima Antlers,40000,2000,64.89307496,-23.70560147,1
143119,M. Pavone,36,Argentina,71,71,Estudiantes de La Plata,850000,9000,24.14341188,120.7213039,1
46857,M. Pedersen,36,Norway,68,68,Tromso IL,280000,2000,0,0,1
101317,M. Ratajczak,36,Germany,63,63,SC Paderborn 07,50000,1000,51.725776,8.719051249,1
121937,M. Rensing,34,Germany,73,73,Fortuna Dsseldorf,2000000,17000,61.8027147,22.3965338,1
53778,M. Richards,35,England,63,63,Swindon Town,170000,3000,51.5492959,-1.7745049,1
146111,M. Rico,33,Spain,75,75,Athletic Club de Bilbao,4000000,21000,26.2174286,50.5231498,1
46175,M. Rosenberg,35,Sweden,73,73,Malmo FF,2000000,6000,33.2296382,-8.4932363,1
144156,M. Sejmenovic,32,Bosnia Herzegovina,61,61,Neuchatel Xamax,140000,2000,26.23912894,50.53867856,1
2147,M. Stekelenburg,35,Netherlands,73,73,Everton,950000,30000,52.1462041,-0.2430129,1
137699,M. Stoll,35,Germany,64,64,Karlsruher SC,110000,1000,60.2213794,24.9394457,1
146487,M. Susaeta,33,Spain,69,69,Albacete BP,625000,5000,60.2127717,25.0973601,1
107305,M. Tacalfred,37,France,65,65,AJ Auxerre,70000,1000,47.78507895,3.591643784,1
53827,M. Taylor,36,England,62,62,Swindon Town,30000,2000,51.5492959,-1.7745049,1
53842,M. Tonge,35,England,60,60,Port Vale,90000,2000,51.7992048,-0.084427484,1
124635,M. Topal,32,Turkey,76,76,Fenerbahce SK,4000000,51000,25.02571644,121.7389097,1
138181,M. Turner,34,England,67,67,Southend United,230000,4000,60.2599501,20.7786249,1
18745,M. Tyler,41,England,59,59,Peterborough United,10000,1000,42.87977685,-71.9465748,1
146947,M. Vesga,25,Spain,72,77,CD Leganes,4000000,14000,60.2268964,24.8663733,1
137677,M. Vorm,34,Netherlands,77,77,Tottenham Hotspur,4000000,56000,-5.84680317,144.2693344,1
148569,M. Wasilewski,38,Poland,70,70,Wisla Krakow,240000,3000,62.15811995,-6.802428599,1
114356,M. Woelfli,35,Switzerland,68,68,BSC Young Boys,210000,4000,49.92782995,20.91053941,1
117063,N. Douchez,38,France,66,66,Red Star FC,40000,1000,-15.69168745,48.3635507,1
51159,N. Ferreira,36,Portugal,66,66,FC Thun,220000,3000,46.7471545,7.610445299,1
138083,N. Hunt,34,England,55,55,Crewe Alexandra,30000,3000,35.6834671,139.914136,1
135587,N. Maenpaa,33,Finland,69,69,Bristol City,525000,14000,64.06919408,-22.65541995,1
18122,N. Penneteau,37,France,73,73,Sporting de Charleroi,270000,6000,0,0,1
16097,N. Rimando,39,United States,71,71,Real Salt Lake,160000,3000,40.4830102,-111.9778441,1
53855,N. Tyson,36,England,64,64,Wycombe Wanderers,150000,2000,51.603859,-0.806899842,1
135032,N. Zimling,33,Denmark,67,67,Sonderjyske,450000,5000,25.04768663,121.428973,1
143617,O. Adin,32,Turkey,70,70,Antalyaspor,1000000,10000,60.0690169,20.0860081,1
49161,O. Deschacht,37,Belgium,71,71,Sporting Lokeren,325000,6000,0,0,1
139058,O. Perez,37,Argentina,73,73,Patriotas Boyacÿ FC,1000000,2000,58.93408852,7.72042149,1
50531,O. Storflor,38,Norway,63,63,Ranheim Fotball,120000,1000,0,0,1
144429,O. Wendt,32,Sweden,76,76,Borussia Munchengladbach,4000000,24000,62.20722125,-7.068104971,1
105827,P. Brozek,35,Poland,66,66,Wisla Krakow,300000,2000,50.05237805,20.0569317,1
135647,P. Calandria,36,Argentina,69,69,CD O'Higgins,375000,3000,25.25610884,121.5026736,1
48940,P. Cech,36,Czech Republic,82,82,Arsenal,3000000,60000,51.5584284,-0.1056554,1
140300,P. Cherrie,34,Scotland,58,58,Derry City,50000,1000,24.5613523,120.8522529,1
50632,P. Clarke,36,England,64,64,Oldham Athletic,60000,2000,0,0,1
51257,P. Crouch,37,England,72,72,Stoke City,1000000,25000,53.006213,-2.177755384,1
120243,P. Gori,38,Italy,63,63,Benevento,20000,1000,25.22354489,121.6363774,1
11811,P. Green,35,Republic of Ireland,63,63,Crewe Alexandra,150000,3000,53.08740205,-2.435733323,1
122718,P. Heerwagen,35,Germany,64,64,FC Ingolstadt 04,110000,3000,61.84557915,-6.722433265,1
53914,P. Jagielka,35,England,77,77,Everton,2000000,53000,52.1462041,-0.2430129,1
137166,P. Jones,32,England,63,63,Fleetwood Town,210000,2000,24.66471345,121.638432,1
148526,P. Kieszek,34,Poland,71,71,Mÿlaga CF,950000,5000,62.26538245,-6.914171403,1
143112,P. Lugaercio,36,Argentina,68,68,Estudiantes de La Plata,300000,5000,62.1290698,-6.948528447,1
129566,P. McShane,32,Republic of Ireland,68,68,Reading,525000,12000,24.93538146,121.7170495,1
24630,P. Reina,35,Spain,83,83,Milan,6000000,56000,45.4641943,9.1896346,1
49966,P. Senderos,33,Switzerland,67,67,Houston Dynamo,300000,3000,0,0,1
142756,P. Toranzo,36,Argentina,70,70,Club Atletico Huracÿn,600000,7000,32.08208813,35.18369687,1
28157,P. van der Vlag,40,Netherlands,58,58,FC Emmen,10000,1000,47.0752429,8.2839456,1
148839,P. Verhaegh,34,Netherlands,74,74,VfL Wolfsburg,2000000,32000,16.8283274,96.25484093,1
142784,P. Zabaleta,33,Argentina,76,76,West Ham United,3000000,60000,51.08574567,17.0472639,1
121933,R. Adler,33,Germany,79,79,FSV Mainz 05,7000000,25000,61.9895047,26.6440817,1
144622,R. Araujo,33,Brazil,81,81,Borussia Munchengladbach,11000000,41000,62.2104912,-7.033883637,1
142670,R. Braa,39,Argentina,70,70,Estudiantes de La Plata,120000,6000,62.10285895,-7.248700132,1
146453,R. Caemara,34,Spain,68,68,CD Tenerife,250000,4000,26.2171426,50.5176286,1
115909,R. Castro,37,Spain,77,77,UD Las Palmas,3000000,11000,49.94654,20.8897519,1
137267,R. Clark,35,United States,66,66,Columbus Crew SC,150000,2000,24.64291554,121.7831286,1
112365,R. Cohade,33,France,74,74,FC Metz,3000000,8000,63.98284504,-22.38235908,1
20209,R. Costa,37,Portugal,74,74,CD Tondela,750000,4000,40.51642,-8.08053,1
22391,R. Cretaro,36,Republic of Ireland,57,57,Sligo Rovers,40000,1000,54.2701557,-8.486735458,1
140418,R. Duffy,32,Wales,62,62,Notts County,170000,3000,24.48064018,120.8272825,1
116308,R. Fanni,36,France,74,74,Montreal Impact,750000,5000,49.9582473,20.90261066,1
18115,R. Fernandes,32,Portugal,72,72,Portimonense SC,2000000,7000,0,0,1
138251,R. Foster,32,Scotland,64,64,St. Johnstone FC,250000,2000,62.8924601,27.6781839,1
101880,R. Green,38,England,72,72,Chelsea,210000,28000,51.4875167,-0.1687007,1
134968,R. Haemhouts,34,Belgium,62,62,NAC Breda,150000,2000,25.03452468,121.4388553,1
134895,R. Hilbert,33,Germany,71,71,Spagg Greuther Frth,900000,7000,63.85656444,-22.38961033,1
138460,R. Hubnik,34,Czech Republic,74,74,Viktoria Plzen,2000000,1000,64.54753395,-21.90956827,1
104389,R. Jarstein,33,Norway,83,83,Hertha BSC,13000000,33000,52.5102617,13.3809383,1
122066,R. Keanig,35,Germany,65,65,FSV Zwickau,250000,1000,37.5110581,127.0737204,1
140620,R. Klavan,32,Estonia,77,77,Cagliari,5000000,30000,49.1494932,14.68814059,1
146996,R. Martinez,34,Spain,68,68,CA Osasuna,375000,3000,62.30150235,-7.060712627,1
19975,R. Nuzzolo,34,Switzerland,73,73,Neuchatel Xamax,2000000,9000,0,0,1
20775,R. Quaresma,34,Portugal,84,84,Besiktas JK,15000000,80000,41.0147087,28.9740359,1
146758,R. Soldado,33,Spain,76,76,Fenerbahce SK,5000000,61000,15.8903675,-89.5202375,1
23466,R. Taylor,33,England,69,69,Fleetwood Town,400000,5000,53.9246318,-3.0076372,1
140497,R. Wallace,33,Scotland,70,70,Fleetwood Town,1000000,6000,34.83873391,134.7084942,1
131444,R. Wartz,34,Denmark,68,68,Aalborg BK,425000,6000,63.92541948,-22.68703209,1
108061,R. Ziegler,32,Switzerland,70,70,FC Dallas,1000000,5000,46.3866934,15.4486315,1
145889,R.Triguero,32,Spain,72,72,Rayo Vallecano,2000000,13000,33.2198418,130.4510982,1
140082,Rafael,36,Brazil,75,75,Cagliari,900000,14000,24.61034887,120.9898484,1
144415,S. Agcay,36,Turkey,66,66,MKE Ankaragc,90000,4000,24.19209265,120.5624584,1
125586,S. Andersen,36,Denmark,68,68,FC Kobenhavn,120000,4000,25.02855456,121.8470626,1
142258,S. Bossut,32,Belgium,71,71,SV Zulte-Waregem,1000000,8000,50.84606725,15.3419089,1
134820,S. Brown,33,Scotland,77,77,Celtic,4000000,47000,24.96161233,121.3481193,1
54008,S. Bywater,37,England,63,63,Burton Albion,20000,1000,52.81916575,-1.628686326,1
50294,S. Camara,35,Senegal,68,68,Montpellier HSC,400000,8000,0,0,1
146562,S. Cazorla,33,Spain,80,80,Villarreal CF,9000000,39000,58.08697696,7.982095712,1
54013,S. Downing,33,England,72,72,Middlesbrough,2000000,36000,54.5760419,-1.2344047,1
137356,S. Farelli,35,Italy,58,58,Pescara,30000,1000,64.14330936,-21.63479105,1
135883,S. Francis,33,England,75,75,Bournemouth,3000000,49000,63.366783,24.9708779,1
135697,S. Garcia,35,Spain,77,77,RCD Espanyol,4000000,23000,26.27237695,50.6507613,1
124607,S. Inan,33,Turkey,75,75,Galatasaray SK,4000000,47000,64.1071048,-22.00318266,1
10466,S. Ishizaki,36,Sweden,67,67,IF Elfsborg,240000,2000,0,0,1
144172,S. Kirntili,33,Turkey,74,74,Atiker Konyaspor,3000000,12000,62.1910118,-7.079301894,1
53073,S. Kulovits,35,Austria,67,67,SV Sandhausen,180000,2000,49.33238565,8.648995676,1
108080,S. Lichtsteiner,34,Switzerland,79,79,Arsenal,4000000,94000,46.3350483,15.879597,1
140445,S. MacLean,35,Scotland,68,68,Heart of Midlothian,400000,3000,24.31709551,120.8349396,1
29552,S. Nakamura,40,Japan,72,72,Jœbilo Iwata,0,4000,0,0,1
140183,S. Narazaki,42,Japan,65,65,Nagoya Grampus,40000,1000,24.49383476,120.6958585,1
29118,S. Ono,38,Japan,54,54,Hokkaido Consadole Sapporo,20000,1000,0,0,1
144282,S. Ozkan,31,Turkey,67,67,Antalyaspor,675000,6000,24.15423895,120.5559515,1
102056,S. Padoin,34,Italy,71,71,Cagliari,675000,18000,39.2171994,9.113311,1
148564,S. Peszko,33,Poland,65,65,Lechia Gdansk,325000,3000,34.73278676,135.5547221,1
100899,S. Phillips,40,England,52,52,Yeovil Town,0,1000,50.940465,-2.6245681,1
47201,S. Proto,35,Belgium,76,76,Lazio,2000000,20000,41.9808038,12.7662312,1
111206,S. Riether,35,Germany,69,69,FC Schalke 04,230000,9000,22.7090486,120.2851423,1
116762,S. Roudet,37,France,69,69,Valenciennes FC,350000,3000,64.11146254,-21.89666036,1
53960,S. Russell,35,England,59,59,Grimsby Town,40000,1000,53.5634567,-0.0868507,1
137109,S. Schaars,34,Netherlands,73,73,SC Heerenveen,1000000,8000,24.73606245,121.6990782,1
120415,S. Shearer,37,Scotland,59,59,Oxford United,10000,1000,64.0578115,-21.87443614,1
139799,S. Silva,37,Uruguay,71,71,Gimnasia y Esgrima La Plata,850000,8000,65.37782729,-22.9001805,1
49031,S. Sorrentino,39,Italy,80,80,Chievo Verona,1000000,10000,45.4575984,10.9464024,1
45083,S. von Bergen,35,Switzerland,73,73,BSC Young Boys,950000,12000,0,0,1
122574,S. Whittaker,34,Scotland,68,68,Hibernian,250000,3000,55.9239411,12.23133068,1
144160,T. Acar,32,Turkey,68,68,Sivasspor,525000,5000,24.25265702,120.6915245,1
52752,T. Barnetta,33,Switzerland,72,72,FC St. Gallen,2000000,12000,47.40832315,9.305634084,1
54037,T. Berni,35,Italy,64,64,Inter,110000,5000,57.2118589,-4.6169488,1
16254,T. Howard,39,United States,72,72,Colorado Rapids,210000,3000,45.5870027,-120.8958185,1
54033,T. Huddlestone,31,England,73,73,Derby County,3000000,31000,37.5455735,-97.2689331,1
45548,T. Hysen,36,Sweden,67,67,IFK Gœteborg,270000,2000,57.6776657,11.9349718,1
101473,T. Kuszczak,36,Poland,69,69,Birmingham City,140000,6000,33.5206824,-86.8024326,1
119233,T. Mears,35,England,66,66,West Bromwich Albion,140000,6000,-13.39787032,48.2587138,1
51963,T. Warner,44,Trinidad & Tobago,53,53,Accrington Stanley,0,1000,53.753167,-2.359445852,1
143306,T. Zengin,34,Turkey,72,72,Besiktas JK,1000000,23000,24.10374446,120.6310398,1
27480,T. Zwarthoed,35,Netherlands,63,63,NAC Breda,90000,1000,51.5940995,4.7499684,1
3281,Tarantini,34,Portugal,75,75,Rio Ave FC,3000000,10000,41.3627303,-8.740132001,1
138981,Tiago Gomes,31,Portugal,67,67,CD Feirense,500000,4000,26.2270245,50.5900741,1
125995,U. Bulut,35,Turkey,71,71,Kayserispor,1000000,8000,35.7304662,139.7097865,1
128529,U. Ceylan,32,Turkey,69,69,Alanyaspor,600000,5000,24.96952358,121.5377891,1
143632,V. Demirel,36,Turkey,74,74,Fenerbahce SK,750000,23000,37.5924189,127.0165294,1
139720,V. Kompany,32,Belgium,85,85,Manchester City,22000000,170000,37.4870692,127.046978,1
137809,Vaegner Love,34,Brazil,77,77,Besiktas JK,5000000,50000,61.6946326,-6.756602848,1
139062,W. Caballero,36,Argentina,76,76,Chelsea,1000000,39000,26.21824388,50.61068852,1
142773,W. Montillo,34,Argentina,73,73,Club Atletico Tigre,2000000,13000,50.26181233,16.81353398,1
136113,W. Morgan,34,Jamaica,75,75,Leicester City,2000000,50000,40.90160985,-79.63434686,1
54050,W. Rooney,32,England,80,80,DC United,12000000,13000,36.1943566,-111.807362,1
54051,W. Routledge,33,England,71,71,Swansea City,1,18000,51.6195955,-3.9459248,1
110680,X.Campos,36,Spain,66,66,RCD Mallorca,70000,2000,45.7619709,14.6346442,1
143799,Y. Ayhan,36,Turkey,73,73,MKE Ankaragc,550000,12000,24.27017513,120.7926089,1
140196,Y. Endo,38,Japan,71,71,Gamba Osaka,325000,6000,62.1447535,-7.131508754,1
140164,Y. Gutierrez,37,Mexico,61,61,Club Necaxa,20000,1000,24.5404979,120.921191,1
144010,Y. Kurtulus,32,Turkey,67,67,Antalyaspor,450000,6000,24.21456849,121.0529059,1
140201,Y. Okubo,36,Japan,69,69,Jœbilo Iwata,375000,3000,36.66694461,137.2007957,1
107298,Y. Pele,35,France,75,75,Olympique de Marseille,2,19000,43.26616895,5.372080323,1
141111,Z. Dedic,33,Slovenia,67,67,FC Wacker Innsbruck,475000,5000,54.7731198,11.69676543,1
41236,Z. Ibrahimovic,36,Sweden,85,85,LA Galaxy,14000000,15000,30.20687735,-92.107658,1
